type,lat,lon,city
shooting,31.2500,34.8000,Eilat - Desert Heat Zone
bomb,31.0000,35.0000,Dead Sea - Extreme Heat
shooting,32.5000,35.5000,Jordan Valley - High Temperature
bomb,31.5000,34.5000,Negev Desert - Heat Advisory
bomb,32.2000,34.9000,Coastal Plain - Summer Heat
